City_ID,City,Lat,Lng,Max Temp,Humidity,Cloudiness,Wind Speed,Country,Date
0,aasiaat,68.7098,-52.8699,-6.77,77,100,2.56,GL,1713561329
1,port elizabeth,-33.918,25.5701,18.51,95,20,1.03,ZA,1713561329
2,dudinka,69.4058,86.1778,-9.62,96,100,3.13,RU,1713561329
3,marsh harbour,26.5412,-77.0636,23.87,66,63,3.41,BS,1713561330
4,kill devil hills,36.0307,-75.676,18.0,86,100,3.6,US,1713561330
5,kamaishi,39.2667,141.8833,9.01,80,18,3.21,JP,1713561330
6,ajdabiya,30.7554,20.2263,17.23,72,81,9.18,LY,1713561331
7,mao,39.8885,4.2658,10.31,76,0,2.06,ES,1713561331
8,yaren,-0.5472,166.916,29.11,73,82,4.66,NR,1713561331
9,port-aux-francais,-49.35,70.2167,3.83,62,58,9.02,TF,1713561331
10,lebu,-37.6167,-73.65,14.0,74,100,3.88,CL,1713561332
11,jinchang,38.4953,102.1739,10.56,54,100,1.82,CN,1713561332
12,iqaluit,63.7506,-68.5145,-9.61,66,50,4.92,CA,1713561332
13,college,64.8569,-147.8028,12.97,21,0,1.54,US,1713561332
14,lompoc,34.6391,-120.4579,20.01,69,0,5.14,US,1713561188
15,san patricio,28.017,-97.5169,31.76,61,69,6.72,US,1713561333
16,waitangi,-43.9535,-176.5597,14.34,95,39,0.45,NZ,1713561333
17,daru,-9.0763,143.2092,25.86,92,100,4.43,PG,1713561333
18,margaret river,-33.95,115.0667,16.35,48,71,3.34,AU,1713561333
19,zhaqsy,51.9083,67.3133,15.72,68,27,1.02,KZ,1713561334
20,udachny,66.4167,112.4,-0.31,89,100,2.8,RU,1713561334
21,puerto ayora,-0.7393,-90.3518,28.98,95,57,1.79,EC,1713561334
22,rongelap,11.1635,166.8941,27.12,84,22,9.62,MH,1713561334
23,san antonio de pale,-1.4014,5.6325,28.53,86,100,3.12,GQ,1713561335
24,waddan,29.1614,16.139,16.24,65,18,7.63,LY,1713561335
25,hithadhoo,-0.6,73.0833,28.5,77,100,6.1,MV,1713561335
26,whitehorse,60.7161,-135.0538,4.06,32,34,5.36,CA,1713561336
27,avarua,-21.2078,-159.775,28.03,74,75,3.6,CK,1713561336
28,hirara,24.8,125.2833,24.27,86,100,7.7,JP,1713561336
29,turkmenbasy,40.0222,52.9552,21.21,37,0,3.95,TM,1713561336
30,luderitz,-26.6481,15.1594,16.56,83,56,3.75,NA,1713561337
31,yeppoon,-23.1333,150.7333,22.88,85,100,4.13,AU,1713561337
32,la mira,18.035,-102.3266,29.43,46,0,5.18,MX,1713561337
33,isangel,-19.55,169.2667,27.57,80,65,4.88,VU,1713561337
34,mahajanga,-15.7167,46.3167,26.8,65,100,3.21,MG,1713561338
35,tsiombe,-25.3,45.4833,20.55,83,2,2.16,MG,1713561338
36,port mathurin,-19.6833,63.4167,26.05,75,100,10.43,MU,1713561338
37,thompson,55.7435,-97.8558,-0.55,87,69,4.82,CA,1713561338
38,wailua homesteads,22.0669,-159.378,27.24,81,100,7.72,US,1713561339
39,adamstown,-25.066,-130.1015,22.76,69,11,9.14,PN,1713561339
40,albany,42.6001,-73.9662,13.38,61,100,2.68,US,1713561339
41,rockland,41.1668,-74.0496,13.5,70,99,0.45,US,1713561339
42,invercargill,-46.4,168.35,10.01,79,100,4.47,NZ,1713561041
43,tiksi,71.6872,128.8694,-9.74,91,39,2.93,RU,1713561340
44,olonkinbyen,70.9221,-8.7187,-4.43,57,4,5.02,SJ,1713561340
45,hermanus,-34.4187,19.2345,17.74,84,96,0.97,ZA,1713561340
46,hawaiian paradise park,19.5933,-154.9731,23.26,91,100,2.06,US,1713561341
47,ilulissat,69.2167,-51.1,-5.99,79,75,3.6,GL,1713561341
48,katabu,-4.9333,122.5167,23.75,92,82,0.8,ID,1713561341
49,blackmans bay,-43.0167,147.3167,6.4,90,10,0.45,AU,1713561342
50,okhotsk,59.3833,143.3,-1.05,91,90,2.25,RU,1713561342
51,santarem,-2.4431,-54.7083,29.07,79,20,0.0,BR,1713561342
52,colonia,50.9333,6.95,7.19,87,100,7.72,DE,1713561342
53,puerto natales,-51.7236,-72.4875,6.25,61,75,10.29,CL,1713561343
54,west island,-12.1568,96.8225,26.99,74,94,6.69,CC,1713561343
55,jamestown,42.097,-79.2353,11.96,89,100,7.2,US,1713561343
56,le port,-20.9373,55.2919,23.0,77,99,3.62,RE,1713561343
57,nouadhibou,20.931,-17.0347,19.57,82,100,12.26,MR,1713561344
58,ola,59.5833,151.2833,-3.25,76,55,4.8,RU,1713561344
59,namibe,-15.1961,12.1522,24.83,74,24,1.63,AO,1713561344
60,port alfred,-33.5906,26.891,20.1,97,8,0.45,ZA,1713561344
61,edinburgh of the seven seas,-37.0676,-12.3116,14.46,68,83,12.93,SH,1713561345
62,tazovsky,67.4667,78.7,-18.27,95,100,8.43,RU,1713561345
63,st. john's,47.5649,-52.7093,2.6,88,60,7.15,CA,1713561345
64,port pirie,-33.1833,138.0167,10.11,85,0,2.93,AU,1713561345
65,saipan,15.1355,145.701,28.39,78,20,5.14,MP,1713561347
66,san carlos de bariloche,-41.1456,-71.3082,8.86,57,20,11.83,AR,1713561347
67,papatowai,-46.5619,169.4708,9.13,81,90,3.44,NZ,1713561347
68,ushuaia,-54.8,-68.3,2.81,75,75,9.77,AR,1713561348
69,grytviken,-54.2811,-36.5092,5.7,99,100,1.62,GS,1713561348
70,cudillero,43.5622,-6.1459,12.9,82,0,3.09,ES,1713561348
71,kristiansund,63.1115,7.732,4.36,75,100,5.66,NO,1713561348
72,ancud,-41.8697,-73.8203,10.96,76,70,2.85,CL,1713561349
73,saint-philippe,-21.3585,55.7679,22.77,82,100,5.0,RE,1713561349
74,senanga,-16.1167,23.2667,21.39,45,18,2.75,ZM,1713561349
75,fuding,27.3273,120.214,18.85,98,95,1.08,CN,1713561349
76,lihue,21.9789,-159.3672,27.58,75,100,7.72,US,1713561350
77,cabo san lucas,22.8909,-109.9124,34.17,8,0,4.63,MX,1713561028
78,bilibino,68.0546,166.4372,-14.42,90,100,2.19,RU,1713561350
79,bahia de caraquez,-0.6,-80.4167,29.1,79,98,3.42,EC,1713561350
80,kokpekty,48.75,82.4,12.7,87,28,4.15,KZ,1713561351
81,quepos,9.4236,-84.1652,30.05,68,100,2.56,CR,1713561351
82,yellowknife,62.456,-114.3525,5.12,64,100,5.28,CA,1713561351
83,longyearbyen,78.2186,15.6401,-2.09,64,75,10.8,SJ,1713561284
84,pariaman,-0.619,100.12,26.03,90,100,2.13,ID,1713561352
85,virac,13.6333,124.2167,21.42,88,89,2.7,PH,1713561352
86,susuman,62.7833,148.1667,-9.45,98,100,1.34,RU,1713561353
87,fremont,37.5483,-121.9886,26.07,58,0,5.14,US,1713561203
88,klyuchi,52.2667,79.1667,7.82,72,47,3.44,RU,1713561353
89,chibougamau,49.9168,-74.3659,4.23,97,100,4.38,CA,1713561353
90,mossel bay,-34.1831,22.146,13.96,90,61,2.0,ZA,1713561353
91,tura,25.5198,90.2201,22.6,52,0,2.0,IN,1713561354
92,wunnenberg,51.5167,8.7,5.79,93,100,4.63,DE,1713561354
93,akcaabat,41.0212,39.5715,13.93,88,75,1.54,TR,1713561354
94,cold lake,54.4502,-110.2017,3.56,33,2,0.21,CA,1713561355
95,nizhneangarsk,55.7833,109.55,-5.55,77,5,2.24,RU,1713561355
96,shimoda,34.6667,138.95,13.95,57,100,2.41,JP,1713561355
97,bethel,41.3712,-73.414,13.53,64,100,5.66,US,1713561121
98,cadale,2.7603,46.3222,28.82,79,56,6.84,SO,1713561355
99,piacabucu,-10.4056,-36.4344,27.17,76,100,3.08,BR,1713561356
100,anadyr,64.75,177.4833,-11.72,65,0,2.0,RU,1713561356
101,luanda,-8.8368,13.2343,26.57,89,89,1.39,AO,1713561356
102,abepura,-2.6333,140.5833,25.45,89,40,1.54,ID,1713561357
103,bandon,51.7469,-8.7425,10.77,93,34,3.0,IE,1713561357
104,brokopondo,4.75,-55.1667,28.43,75,71,2.17,SR,1713561357
105,harper,4.375,-7.7169,28.36,84,53,3.32,LR,1713561358
106,kananga,-5.8958,22.4178,22.32,94,99,1.1,CD,1713561358
107,la passe,45.5549,-0.8967,11.66,73,12,4.06,FR,1713561359
108,juan griego,11.0817,-63.9655,28.98,74,95,2.71,VE,1713561359
109,galle,6.0367,80.217,28.01,81,100,3.2,LK,1713561359
110,happy valley-goose bay,53.3168,-60.3315,7.77,41,88,0.32,CA,1713561360
111,igarka,67.4667,86.5833,-15.55,95,100,4.92,RU,1713561360
112,tralee,52.2704,-9.7026,8.12,97,46,0.78,IE,1713561360
113,dexter,36.7959,-89.9579,18.81,45,100,6.18,US,1713561360
114,puri,19.8,85.85,28.29,87,0,8.3,IN,1713561361
115,gao,16.6362,1.637,33.27,9,4,4.46,ML,1713561361
116,ribeira grande,38.5167,-28.7,16.54,88,100,1.79,PT,1713561361
117,al kharijah,25.4514,30.5464,24.0,25,0,4.24,EG,1713561362
118,gorontalo,0.5412,123.0595,23.44,96,74,1.32,ID,1713561362
119,mehar,27.1807,67.8229,26.79,31,6,3.14,PK,1713561362
120,utrik,11.2278,169.8474,26.81,81,10,9.23,MH,1713561362
121,alofi,-19.0595,-169.9187,27.94,74,40,5.66,NU,1713561363
122,zayed city,24.3768,54.589,26.67,78,0,1.54,AE,1713561363
123,morant bay,17.8815,-76.4093,27.65,68,27,6.64,JM,1713561363
124,tegucigalpa,14.0818,-87.2068,33.42,31,40,2.57,HN,1713561363
125,dayr hafir,36.1569,37.7078,16.3,74,5,4.61,SY,1713561364
126,vila velha,-20.3297,-40.2925,24.97,75,0,6.69,BR,1713561364
127,puerto baquerizo moreno,-0.9,-89.6,29.55,66,20,5.66,EC,1713561364
128,iskateley,67.6803,53.1512,-20.55,87,81,4.92,RU,1713561364
129,gebeit,21.0667,36.3167,23.76,21,0,1.97,SD,1713561365
130,atafu village,-8.5421,-172.5159,27.49,86,79,8.83,TK,1713561365
131,talnakh,69.4865,88.3972,-9.89,96,100,0.52,RU,1713561365
132,lospalos,-8.5186,127.0025,21.97,98,100,1.55,TL,1713561366
133,shalya,57.2471,58.7298,14.23,75,21,3.53,RU,1713561366
134,nabire,-3.3667,135.4833,24.25,92,100,1.74,ID,1713561367
135,bredasdorp,-34.5322,20.0403,16.11,95,100,1.82,ZA,1713561367
136,palikir - national government center,6.9248,158.1611,25.47,94,100,2.06,FM,1713561368
137,ulladulla,-35.35,150.4667,15.01,77,98,7.46,AU,1713561368
138,uturoa,-16.7333,-151.4333,28.43,77,76,6.3,PF,1713561368
139,aswan,24.0934,32.907,26.32,19,0,4.22,EG,1713561368
140,khandud,36.9513,72.318,0.65,86,100,1.82,AF,1713561369
141,praia,14.9215,-23.5087,27.3,47,0,10.29,CV,1713561369
142,kavaratti,10.5669,72.642,29.87,73,62,4.56,IN,1713561369
143,shantobe,52.4581,68.1839,15.35,70,6,1.03,KZ,1713561369
144,carnarvon,-24.8667,113.6333,23.95,34,0,5.1,AU,1713561370
145,tevriz,57.509,72.4042,2.65,85,100,1.75,RU,1713561370
146,mikuni,36.2171,136.1519,11.81,60,68,1.29,JP,1713561370
147,remire-montjoly,4.9167,-52.2667,29.02,79,20,4.12,GF,1713561370
148,touros,-5.1989,-35.4608,27.6,81,100,4.57,BR,1713561371
149,los llanos de aridane,28.6585,-17.9182,18.86,86,20,4.63,ES,1713561371
150,chilliwack,49.1747,-121.9443,20.55,22,0,2.68,CA,1713561371
151,patrocinio,-18.9439,-46.9925,22.04,80,89,1.47,BR,1713561372
152,ridder,50.355,83.5133,8.44,98,98,1.05,KZ,1713561372
153,sur,22.5667,59.5289,26.49,61,100,3.89,OM,1713561372
154,cidreira,-30.1811,-50.2056,20.99,75,65,3.53,BR,1713561372
155,moussoro,13.6408,16.4901,34.22,11,85,4.61,TD,1713561373
156,tashtyp,52.7939,89.8983,4.96,85,46,3.94,RU,1713561373
157,east london,-33.0153,27.9116,20.9,89,7,3.24,ZA,1713561373
158,niigata,37.9022,139.0236,10.51,81,63,4.88,JP,1713561373
159,opuwo,-18.0607,13.84,23.56,33,2,2.67,NA,1713561374
160,hammerfest,70.6634,23.6821,-2.75,50,0,4.63,NO,1713561374
161,selfoss,63.9331,-20.9971,2.8,96,100,4.94,IS,1713561374
162,lorengau,-2.0226,147.2712,28.06,76,27,3.05,PG,1713561374
163,nova sintra,14.8667,-24.7167,24.55,76,11,12.21,CV,1713561375
164,katsuren-haebaru,26.3369,127.8719,22.27,76,40,5.14,JP,1713561375
165,crane,31.3974,-102.3501,16.93,58,100,5.56,US,1713561375
166,maricopa,33.0581,-112.0476,34.55,10,0,3.09,US,1713561375
167,waitara,-38.925,174.25,12.78,90,100,5.0,NZ,1713561376
168,kapuskasing,49.4169,-82.4331,6.9,53,100,5.62,CA,1713561376
169,siwa oasis,29.2041,25.5195,25.92,29,28,4.18,EG,1713561376
170,freetown,8.484,-13.2299,27.58,90,78,4.46,SL,1713561376
171,tibu,8.639,-72.7358,29.61,69,100,0.8,CO,1713561377
172,san angelo,31.4638,-100.437,19.67,58,100,5.14,US,1713561377
173,northam,51.0333,-4.2167,9.78,85,0,5.24,GB,1713561377
174,ak-suu,42.4995,78.527,8.29,55,100,2.45,KG,1713561377
175,dalandzadgad,43.5708,104.425,8.84,54,2,6.7,MN,1713561378
176,sovetskiy,61.3614,63.5842,-1.73,86,100,1.34,RU,1713561378
177,choibalsan,48.0667,114.5,7.16,28,100,6.29,MN,1713561378
178,leer,53.2316,7.461,7.74,80,98,1.34,DE,1713561379
179,cooper's town,26.8667,-77.5167,23.39,64,40,0.59,BS,1713561379
180,petropavlovsk-kamchatsky,53.0452,158.6483,2.33,95,75,0.89,RU,1713561379
181,dunedin,-45.8742,170.5036,9.89,95,97,0.93,NZ,1713561379
182,nioki,-2.7167,17.6833,21.59,97,100,1.15,CD,1713561380
183,yeed,4.55,43.0333,28.76,66,56,6.69,SO,1713561380
184,oranjemund,-28.55,16.4333,15.51,90,72,1.88,NA,1713561380
185,villa gesell,-37.2639,-56.973,22.25,71,71,6.43,AR,1713561380
186,ust-nera,64.5667,143.2,-10.73,96,71,2.12,RU,1713561381
187,ambovombe,-25.1667,46.0833,21.42,80,10,2.7,MG,1713561381
188,lata,40.1629,-8.3327,16.62,95,100,0.81,PT,1713561381
189,kilju,40.9642,129.3278,8.7,78,97,2.66,KP,1713561381
190,praia da vitoria,38.7333,-27.0667,17.09,91,99,4.0,PT,1713561382
191,new norfolk,-42.7826,147.0587,7.06,95,11,1.62,AU,1713561382
192,guajara mirim,-10.7828,-65.3394,30.04,68,88,0.84,BR,1713561382
193,taksimo,56.3444,114.8794,-1.56,79,100,0.26,RU,1713561382
194,thunder bay,48.4001,-89.3168,5.58,50,100,6.84,CA,1713561383
195,yuzhno-kurilsk,44.0306,145.8556,2.43,97,100,13.26,RU,1713561383
196,sanchazi,42.0817,126.6003,7.58,51,100,1.7,CN,1713561383
197,georgetown,5.4112,100.3354,27.96,89,20,1.03,MY,1713561383
198,vilyuchinsk,52.9306,158.4028,3.15,93,50,0.43,RU,1713561384
199,howrah,22.5892,88.3103,31.0,74,20,4.12,IN,1713561384
200,barra de sao francisco,-18.755,-40.8908,22.1,83,100,0.4,BR,1713561384
201,kondagaon,19.6,81.6667,27.52,36,39,2.41,IN,1713561385
202,san sebastian de la gomera,28.0916,-17.1133,22.2,52,0,5.14,ES,1713561385
203,ust-tsilma,65.441,52.1498,-9.66,93,100,3.13,RU,1713561385
204,fortuna,40.5982,-124.1573,19.96,62,40,6.69,US,1713561031
205,amga,60.8953,131.9608,-3.18,98,92,1.32,RU,1713561386
206,tolanaro,-25.0319,46.9987,22.12,89,69,4.73,MG,1713561386
207,antalaha,-14.9003,50.2788,24.02,92,99,2.47,MG,1713561386
208,antsiranana,-12.2787,49.2917,26.3,75,44,5.87,MG,1713561386
209,badiyah,22.45,58.8,25.36,52,100,4.79,OM,1713561387
210,selkirk,50.1436,-96.8845,0.58,76,100,5.36,CA,1713561387
211,acarau,-2.8856,-40.12,26.94,84,100,2.96,BR,1713561387
212,badger,64.8,-147.5333,12.93,21,0,1.54,US,1713561387
213,albertville,34.2676,-86.2089,25.97,84,75,0.0,US,1713561291
214,romodanovo,54.4275,45.3296,12.27,61,5,5.38,RU,1713561388
215,sisimiut,66.9395,-53.6735,-4.15,80,100,2.73,GL,1713561388
216,myshkin,57.7897,38.4545,3.94,93,94,9.2,RU,1713561388
217,stanley,54.868,-1.6985,3.99,72,0,3.6,GB,1713561389
218,hadibu,12.65,54.0333,27.95,81,59,3.88,YE,1713561389
219,sabzevar,36.2126,57.6819,18.46,22,1,1.44,IR,1713561389
220,swakopmund,-22.6833,14.5333,15.47,80,10,1.7,NA,1713561390
221,punta arenas,-53.15,-70.9167,5.06,56,75,10.29,CL,1713561390
222,smithers,54.7804,-127.1743,10.61,32,100,3.09,CA,1713561390
223,cockburn town,21.4612,-71.1419,24.57,69,11,6.46,TC,1713561390
224,port saint john's,-31.6229,29.5448,21.06,92,6,1.6,ZA,1713561391
225,inirida,3.8653,-67.9239,27.47,76,100,1.52,CO,1713561391
226,kangding,30.0513,101.9603,8.92,100,100,2.11,CN,1713561391
227,pyay,18.8167,95.2167,26.78,72,8,1.64,MM,1713561391
228,tinajo,29.0788,-13.7081,19.49,73,20,5.14,ES,1713561392
229,brezina,33.0989,1.2608,18.97,26,95,5.63,DZ,1713561392
230,anloga,5.7947,0.8973,29.09,83,99,6.19,GH,1713561392
231,la ronge,55.1001,-105.2842,2.57,78,44,3.45,CA,1713561392
232,waterford,42.7023,-83.4027,14.49,37,40,9.77,US,1713561393
233,vorgashor,67.5833,63.95,-22.33,91,11,3.43,RU,1713561393
234,arraial do cabo,-22.9661,-42.0278,22.92,83,40,4.63,BR,1713561393
235,walvis bay,-22.9575,14.5053,15.53,88,1,2.06,NA,1713561393
236,altai,46.3722,96.2583,4.04,47,76,3.8,MN,1713561394
237,whittlesea,-32.1759,26.8244,17.35,58,5,1.93,ZA,1713561394
238,kavieng,-2.5744,150.7967,28.62,73,100,3.82,PG,1713561394
239,saudarkrokur,65.7461,-19.6394,1.98,95,100,7.13,IS,1713561394
240,maamba,-17.3667,27.15,22.11,58,13,1.81,ZM,1713561395
241,al jawf,29.5,38.75,24.14,24,0,4.07,SA,1713561395
242,jingdezhen,29.2947,117.2079,19.45,96,100,0.84,CN,1713561395
243,dolores,-36.3132,-57.6792,19.33,77,68,4.27,AR,1713561396
244,nanao,37.05,136.9667,10.15,77,62,0.67,JP,1713561396
245,ta`u,-14.2336,-169.5144,28.68,78,61,6.22,AS,1713561396
246,las veredas,23.1388,-109.7075,35.63,27,0,7.72,MX,1713561396
247,plettenberg bay,-34.0527,23.3716,18.04,85,18,0.66,ZA,1713561397
248,yanbu,24.0891,38.0637,26.02,73,0,1.03,SA,1713561397
249,kenora,49.8167,-94.4337,-0.68,86,100,4.02,CA,1713561397
250,chonchi,-42.6128,-73.8092,11.73,78,75,1.81,CL,1713561398
251,shasta lake,40.6804,-122.3708,27.82,34,8,2.34,US,1713561398
252,watsa,3.0372,29.5355,18.81,99,95,1.06,CD,1713561398
253,san jose de guanipa,8.8872,-64.1651,31.67,49,100,1.4,VE,1713561398
254,polyarnyy,69.1989,33.4478,-13.81,90,22,3.27,RU,1713561399
255,tabas,33.5959,56.9244,21.17,21,0,0.82,IR,1713561399
256,minas de marcona,-15.2119,-75.1103,20.29,62,55,4.87,PE,1713561399
257,krasnyy chikoy,50.3643,108.7512,-1.32,91,43,1.19,RU,1713561399
258,paita,-5.0892,-81.1144,23.58,73,62,6.48,PE,1713561400
259,papao,-17.75,-149.55,30.82,78,26,8.23,PF,1713561400
260,newman,37.3138,-121.0208,26.24,53,2,3.13,US,1713561400
261,woodward,36.4337,-99.3904,17.57,29,0,2.57,US,1713561400
262,graaff-reinet,-32.2522,24.5308,23.23,38,9,3.37,ZA,1713561401
263,beyneu,45.3167,55.2,21.08,39,9,4.88,KZ,1713561401
264,toamasina,-18.1667,49.3833,22.52,86,100,2.6,MG,1713561401
265,la gi,10.6667,107.7833,26.88,83,43,2.61,VN,1713561401
266,nadi,-17.8,177.4167,29.0,70,75,1.03,FJ,1713561360
267,runaway bay,18.4596,-77.3357,27.43,68,39,6.26,JM,1713561402
268,tateyama,34.9833,139.8667,17.74,79,100,1.46,JP,1713561403
269,enoch,37.7733,-113.0244,20.26,29,0,2.06,US,1713561403
270,humaita,-7.5061,-63.0208,27.94,92,57,0.78,BR,1713561404
271,jayapura,-2.5333,140.7,25.66,96,100,1.85,ID,1713561404
272,fort st. john,56.2499,-120.8529,7.01,24,0,3.11,CA,1713561404
273,meulaboh,4.1363,96.1285,25.52,90,100,0.91,ID,1713561404
274,uyovu,-3.2833,31.5258,18.4,97,100,1.71,TZ,1713561405
275,port lincoln,-34.7333,135.8667,13.92,72,61,4.43,AU,1713561405
276,port macquarie,-31.4333,152.9167,15.5,86,100,4.74,AU,1713561119
277,coquimbo,-29.9533,-71.3436,16.5,79,7,2.01,CL,1713561405
278,medeiros neto,-17.3739,-40.2206,23.72,75,100,1.66,BR,1713561406
279,mopti,14.6667,-4.0,34.16,7,55,3.88,ML,1713561406
280,amos,48.5669,-78.1162,5.29,92,100,3.73,CA,1713561406
281,galliano,29.4422,-90.2992,30.0,65,40,4.63,US,1713561406
282,tondano,1.3038,124.9112,20.05,95,98,0.65,ID,1713561407
283,am timan,11.0297,20.2827,33.2,23,100,2.91,TD,1713561407
284,enriquillo,17.9,-71.2333,29.82,79,64,2.31,DO,1713561407
285,buedu,8.2803,-10.3719,27.76,68,95,2.22,SL,1713561408
286,songling,31.1933,120.7176,17.1,94,97,5.13,CN,1713561408
287,puerto tirol,-27.3722,-59.0821,26.0,50,0,4.12,AR,1713561408
288,zabol,32.25,67.25,9.44,70,26,2.69,AF,1713561409
289,hilo,19.7297,-155.09,23.38,91,100,2.06,US,1713561409
290,ixtapa,20.7,-105.2,26.57,50,0,5.66,MX,1713561409
291,al fuwayliq,26.4432,43.2534,25.6,17,0,5.96,SA,1713561410
292,gelinkaya,37.417,41.293,16.89,54,63,1.74,TR,1713561410
293,palmas,-10.2128,-48.3603,27.93,83,40,2.57,BR,1713561410
294,weno,7.4515,151.8468,28.41,81,93,7.68,FM,1713561410
295,belmonte,-15.8631,-38.8828,24.93,88,28,4.86,BR,1713561411
296,flying fish cove,-10.4217,105.6791,26.82,94,100,4.63,CX,1713561411
297,armidale,-30.5167,151.65,7.92,95,87,1.87,AU,1713561411
298,pyhajarvi,67.0701,27.2176,-12.28,95,98,2.43,FI,1713561411
299,berezovyy,51.6667,135.7,-0.02,97,100,2.0,RU,1713561412
300,ad darbasiyah,37.0728,40.652,17.63,54,17,2.66,SY,1713561412
301,mangrol,21.1167,70.1167,26.2,72,7,7.05,IN,1713561412
302,gadzhiyevo,69.2551,33.3362,-13.72,92,28,3.29,RU,1713561412
303,belgrade,44.804,20.4651,6.9,74,0,2.06,RS,1713561346
304,benton,36.3334,-94.3335,19.35,39,0,4.63,US,1713561413
305,bac lieu,9.285,105.7244,27.55,71,69,3.15,VN,1713561413
306,sitka,57.0531,-135.33,17.94,20,0,7.2,US,1713561413
307,boende,-0.2167,20.8667,22.74,90,56,1.17,CD,1713561414
308,itaueira,-7.6033,-43.0256,29.13,58,100,1.75,BR,1713561414
309,kodiak,57.79,-152.4072,3.73,93,100,11.32,US,1713561414
310,hamilton,39.1834,-84.5333,18.44,47,0,6.17,US,1713561415
311,umm kaddadah,13.6017,26.6876,30.28,11,98,5.14,SD,1713561415
312,tan-tan,28.438,-11.1032,17.31,83,36,4.47,MA,1713561415
313,yoloten,37.2989,62.3597,20.92,31,96,2.87,TM,1713561415
314,kendari,-3.945,122.4989,24.29,96,75,1.23,ID,1713561416
315,griffith,41.5284,-87.4237,14.52,38,0,10.29,US,1713561416
316,heinola,61.2056,26.0381,-4.44,92,100,4.36,FI,1713561416
317,rio preto da eva,-2.6994,-59.6997,28.03,88,68,1.2,BR,1713561417
318,mirny,62.5353,113.9611,-3.76,96,100,2.68,RU,1713561417
319,inhapi,-9.2214,-37.7486,24.69,72,90,1.94,BR,1713561417
320,ust'-ilimsk,58.0006,102.6619,2.47,93,100,1.34,RU,1713561417
321,pine ridge,28.9383,-82.4734,33.32,63,0,4.63,US,1713561418
322,tejen,37.3834,60.5054,20.98,28,26,4.25,TM,1713561418
323,puerto el triunfo,13.2833,-88.55,30.25,64,86,4.18,SV,1713561418
324,enewetak,11.3474,162.3373,27.52,84,69,8.46,MH,1713561419
325,carloforte,39.145,8.3058,12.53,65,0,6.41,IT,1713561419
326,holualoa,19.6228,-155.9522,26.04,81,75,5.14,US,1713561419
327,tadine,-21.55,167.8833,25.71,80,100,3.95,NC,1713561419
328,aykhal,66.0,111.5,-3.53,96,100,2.77,RU,1713561420
329,yarmouth,41.7057,-70.2286,12.58,61,0,4.12,US,1713561420
330,san ignacio de velasco,-16.3667,-60.95,27.49,64,19,1.74,BO,1713561420
331,vizinga,61.0749,50.1031,3.93,98,100,3.35,RU,1713561421
332,keflavik,64.0049,-22.5624,7.24,100,100,9.26,IS,1713561421
333,carauari,-4.8828,-66.8958,26.94,89,100,1.58,BR,1713561421
334,kyaikkami,16.08,97.5675,29.16,73,51,4.62,MM,1713561421
335,san jose del guaviare,2.5729,-72.6459,23.47,99,100,0.11,CO,1713561422
336,laibin,23.7,109.2667,23.75,91,55,2.98,CN,1713561422
337,mount carmel,38.4109,-87.7614,17.66,43,99,5.27,US,1713561422
338,victorica,-36.2151,-65.4359,21.42,42,100,5.47,AR,1713561422
339,lillehammer,61.1146,10.4674,-3.23,89,91,0.99,NO,1713561423
340,melfi,40.9965,15.6514,4.72,87,3,2.91,IT,1713561423
341,khilok,51.3674,110.4676,-2.28,73,6,1.39,RU,1713561423
342,aldan,58.6031,125.3894,-1.12,99,100,0.76,RU,1713561423
343,kayangel,8.0823,134.7173,27.32,86,100,9.01,PW,1713561424
344,greenville,35.6127,-77.3663,28.09,62,40,3.6,US,1713561424
345,puerto deseado,-47.7503,-65.8938,13.94,42,78,7.5,AR,1713561424
346,parintins,-2.6283,-56.7358,28.71,81,100,0.24,BR,1713561424
347,marsabit,2.3284,37.9899,21.36,69,90,6.51,KE,1713561425
348,bonthe,7.5264,-12.505,28.79,82,73,3.88,SL,1713561425
349,lubang,13.8584,120.124,27.87,75,52,7.18,PH,1713561425
350,alice springs,-23.7,133.8833,8.75,76,0,2.06,AU,1713561426
351,san-pedro,4.7485,-6.6363,28.64,83,21,3.13,CI,1713561426
352,bamboo flat,11.7,92.7167,26.82,78,11,1.65,IN,1713561426
353,moranbah,-22.0016,148.0466,21.82,73,100,4.42,AU,1713561426
354,darwin,-12.4611,130.8418,24.99,64,63,4.63,AU,1713560925
355,kutum,14.2,24.6667,27.16,12,92,3.1,SD,1713561427
356,horta,38.5333,-28.6333,16.12,88,100,1.79,PT,1713561427
357,nuuk,64.1835,-51.7216,-3.66,80,75,4.12,GL,1713561427
358,intendente alvear,-35.2338,-63.592,21.71,73,100,3.52,AR,1713561428
359,bontang,0.1333,117.5,26.16,90,94,2.37,ID,1713561428
360,porto velho,-8.7619,-63.9039,31.03,70,75,0.51,BR,1713561428
361,kharkhorin,47.1975,102.8238,8.12,39,61,5.47,MN,1713561428
362,puquio,-14.7,-74.1333,12.69,64,96,4.46,PE,1713561429
363,mareeba,-17.0,145.4333,23.4,89,100,0.86,AU,1713561429
364,milan,45.4643,9.1895,12.82,57,0,2.24,IT,1713561429
365,queenstown,-31.8976,26.8753,17.65,50,3,2.86,ZA,1713561430
366,bratsk,56.1325,101.6142,4.27,84,100,5.02,RU,1713561430
367,vitorino freire,-4.0667,-45.1667,25.86,94,70,1.35,BR,1713561430
368,conde,-7.2597,-34.9075,27.7,83,0,3.09,BR,1713561430
369,tindouf,27.6711,-8.1474,22.87,29,100,8.99,DZ,1713561431
370,zaozersk,69.4005,32.4476,-16.27,98,32,2.37,RU,1713561431
371,port douglas,-16.4833,145.4667,24.8,78,100,2.1,AU,1713561431
372,bamyan,34.75,67.25,2.04,89,100,0.51,AF,1713561431
373,jamaame,0.0697,42.745,27.6,82,100,4.36,SO,1713561432
374,bizerte,37.2744,9.8739,14.39,61,0,8.45,TN,1713561432
375,minot,48.2325,-101.2963,1.12,60,100,11.32,US,1713561432
376,thabazimbi,-24.5917,27.4116,20.18,42,26,1.13,ZA,1713561432
377,vernon,50.2581,-119.2691,15.97,24,100,2.24,CA,1713561433
378,noyabrsk,63.1994,75.4507,-20.98,99,6,2.24,RU,1713561433
379,vytegra,61.0064,36.4481,0.76,73,100,4.47,RU,1713561433
380,altamira,-3.2033,-52.2064,24.42,98,89,1.88,BR,1713561434
381,namtsy,62.7161,129.6658,-3.14,98,100,1.8,RU,1713561434
382,constantia,44.1833,28.65,8.17,77,76,3.6,RO,1713561435
383,wuxue,29.8506,115.5525,17.54,95,96,2.17,CN,1713561435
384,dapa,9.7594,126.0531,26.16,83,99,2.41,PH,1713561435
385,guatire,10.4762,-66.5427,30.67,88,93,0.9,VE,1713561435
386,boyolangu,-8.1181,111.8935,24.61,96,100,0.75,ID,1713561436
387,lib,8.3122,167.3766,27.77,83,54,8.62,MH,1713561436
388,hami,42.8,93.45,16.04,27,77,3.88,CN,1713561436
389,al jubayl,27.0112,49.6583,25.72,52,0,3.74,SA,1713561436
390,salalah,17.0151,54.0924,29.05,74,40,1.03,OM,1713561437
391,nishinoomote,30.7333,131.0,19.91,70,89,4.51,JP,1713561437
392,gwanda,-20.9333,29.0,19.18,53,0,2.1,ZW,1713561437
393,moose jaw,50.4001,-105.5344,-0.92,71,99,7.3,CA,1713561437
394,urzhum,57.1141,49.9996,13.71,80,49,4.09,RU,1713561438
395,miandrivazo,-19.5167,45.4667,24.78,78,100,0.37,MG,1713561438
396,san javier,37.8063,-0.8374,16.1,55,0,2.68,ES,1713561438
397,bovalino,38.149,16.174,15.19,81,25,5.16,IT,1713561438
398,laojunmiao,39.8333,97.7333,5.93,47,48,1.94,CN,1713561439
399,glace bay,46.1969,-59.957,8.36,76,95,1.79,CA,1713561439
400,saint croix,17.7397,-64.7388,26.64,78,50,0.45,VI,1713561439
401,kyrenia,35.3417,33.3167,16.75,81,71,3.39,CY,1713561440
402,tangalle,6.024,80.7911,26.19,91,100,3.53,LK,1713561440
403,falkenberg,56.9055,12.4912,1.64,74,11,4.57,SE,1713561440
404,andergrove,-21.0833,149.1833,23.69,83,93,3.16,AU,1713561440
405,masterton,-40.9597,175.6575,12.71,77,100,0.59,NZ,1713561441
406,hard bargain,26.3167,-77.5667,23.44,63,5,1.38,BS,1713561441
407,montlucon,46.3333,2.6,9.83,83,83,3.76,FR,1713561441
408,pisco,-13.7,-76.2167,23.03,73,0,4.63,PE,1713561441
409,bati,11.1833,40.0167,21.94,77,99,0.79,ET,1713561442
410,nelson bay,-32.7167,152.15,16.11,97,100,4.47,AU,1713561442
411,zaoyang,32.1272,112.7542,13.78,93,41,2.57,CN,1713561442
412,prado,-17.3411,-39.2208,25.19,87,91,6.57,BR,1713561443
413,soio,-6.1349,12.3689,25.17,89,100,1.21,AO,1713561443
414,batesville,35.7698,-91.641,17.82,58,100,3.09,US,1713561443
415,isafjordur,66.0755,-23.124,-1.48,96,100,5.85,IS,1713561443
416,seven pagodas,12.6264,80.1722,30.05,89,61,5.02,IN,1713561444
417,sola,-13.8833,167.55,27.55,81,96,3.11,VU,1713561444
418,guichon,-32.35,-57.2,19.92,77,6,3.19,UY,1713561444
419,mushie,-3.0167,16.9,22.45,90,100,1.21,CD,1713561444
420,haiku-pauwela,20.9219,-156.3051,26.23,77,75,8.23,US,1713561445
421,sao miguel do araguaia,-13.275,-50.1628,27.02,79,84,2.48,BR,1713561445
422,flin flon,54.7682,-101.865,0.38,77,3,5.21,CA,1713561445
423,port-vila,-17.7338,168.3219,26.95,85,100,6.37,VU,1713561445
424,allahabad,25.45,81.85,31.45,21,3,2.85,IN,1713561446
425,north battleford,52.7834,-108.2847,3.0,42,0,4.15,CA,1713561446
426,plymouth,41.8334,-70.8328,14.63,53,0,3.6,US,1713561446
427,luis correia,-2.8792,-41.6669,28.0,83,75,2.57,BR,1713561446
428,urangan,-25.3,152.9,20.67,96,100,3.58,AU,1713561447
429,signal mountain,35.1226,-85.3438,25.92,65,75,3.09,US,1713561447
430,grand-lahou,5.1367,-5.0242,28.45,83,66,3.98,CI,1713561447
431,at taraf,25.3628,49.725,24.3,36,0,3.61,SA,1713561448
432,mount pearl,47.5166,-52.7813,2.14,88,66,4.92,CA,1713561448
433,muscatine,41.4667,-91.1335,14.1,33,100,9.26,US,1713561328
434,boromo,11.75,-2.9333,34.93,9,17,1.38,BF,1713561448
435,cill airne,52.05,-9.5167,9.11,94,92,1.16,IE,1713561448
436,suksun,57.1431,57.3949,15.89,68,21,4.76,RU,1713561449
437,jimenez,28.3333,-105.4,33.81,8,91,3.67,MX,1713561449
438,kirakira,-10.4544,161.9205,27.93,83,32,0.25,SB,1713561449
439,tugulym,57.0591,64.6425,8.04,97,100,2.82,RU,1713561449
440,ormond-by-the-sea,29.3491,-81.0665,29.49,70,0,4.12,US,1713561450
441,vadso,70.0744,29.7487,-5.91,68,40,9.26,NO,1713561450
442,sydney,-33.8679,151.2073,16.61,87,75,11.32,AU,1713561039
443,isla vista,34.4133,-119.861,25.8,82,100,2.57,US,1713561294
444,nogliki,51.8333,143.1667,0.19,97,100,4.47,RU,1713561451
445,camalu,30.85,-116.0667,21.48,69,1,5.8,MX,1713561451
446,minamata,32.2167,130.4,14.7,58,100,2.47,JP,1713561452
447,chui,-33.6971,-53.4616,19.53,82,90,2.5,UY,1713561208
448,jakar,27.5492,90.7525,6.89,96,83,0.27,BT,1713561452
449,san mariano,7.5,126.0,20.04,69,79,1.34,PH,1713561452
450,mount gambier,-37.8333,140.7667,8.06,90,6,1.35,AU,1713561453
451,pangody,65.85,74.4859,-21.5,94,14,3.96,RU,1713561453
452,laem sing,12.4816,102.0738,29.43,72,84,4.67,TH,1713561453
453,celestun,20.8667,-90.4,28.38,66,0,7.47,MX,1713561453
454,as sulayyil,20.4607,45.5779,27.14,25,2,3.37,SA,1713561454
455,huron,41.1501,-82.5499,14.76,53,74,6.62,US,1713561454
456,robertsport,6.7533,-11.3686,28.83,84,99,5.01,LR,1713561454
457,chivhu,-19.0211,30.8922,15.81,66,0,4.73,ZW,1713561455
458,buka,40.8108,69.1986,18.62,59,66,0.88,UZ,1713561455
459,shalqar,47.8333,59.6,19.77,51,2,4.1,KZ,1713561455
460,primero de mayo,-32.2552,-58.4228,20.33,77,2,3.31,AR,1713561455
461,cabedelo,-6.9811,-34.8339,28.37,80,100,4.87,BR,1713561456
462,alo,7.4178,6.7371,30.4,64,95,3.38,NG,1713561456
463,dimako,4.3833,13.5667,22.08,89,100,0.84,CM,1713561456
464,cururupu,-1.8283,-44.8683,24.56,100,100,0.67,BR,1713561457
465,puerto santa,-8.9906,-78.6456,21.59,79,100,4.1,PE,1713561457
466,marka,1.7159,44.7717,27.45,85,77,5.0,SO,1713561457
467,bykhaw,53.5193,30.2469,1.98,95,49,3.45,BY,1713561458
468,warmbad,-28.45,18.7333,28.07,26,0,4.65,NA,1713561458
469,alik ghund,30.4896,67.5226,7.18,74,3,1.35,PK,1713561458
470,simanggang,1.2472,111.4528,23.37,99,91,0.11,MY,1713561459
471,zhigalovo,54.8097,105.1578,1.66,93,100,1.23,RU,1713561459
472,barra de santo antonio,-9.4047,-35.5072,25.6,83,100,4.33,BR,1713561460
473,okha,53.5739,142.9478,-0.42,94,100,6.26,RU,1713561460
474,as safirah,36.077,37.3725,15.44,84,4,4.11,SY,1713561461
475,tual,-5.6667,132.75,28.0,77,100,1.15,ID,1713561462
476,road town,18.4167,-64.6167,29.02,70,40,3.6,VG,1713561462
477,la'ie,21.6477,-157.9253,26.98,75,53,4.47,US,1713561462
478,pamplona,42.8169,-1.6432,11.95,54,0,2.06,ES,1713561353
479,tingo maria,-9.2895,-76.0088,30.17,62,20,1.54,PE,1713561463
480,chinde,26.8418,88.0763,18.27,50,0,2.56,NP,1713561463
481,palmer,42.1584,-72.3287,15.32,37,75,7.72,US,1713561464
482,cananeia,-25.0147,-47.9267,20.89,71,4,2.22,BR,1713561464
483,sao gabriel da cachoeira,-0.1303,-67.0892,24.88,96,100,0.46,BR,1713561464
484,mer,47.7056,1.5062,10.95,92,100,0.89,FR,1713561465
485,vyazemskiy,47.5378,134.7525,2.44,82,0,2.92,RU,1713561465
486,faranah,10.0404,-10.7434,31.27,29,4,1.25,GN,1713561465
487,rovaniemi,66.5,25.7167,-5.33,45,0,5.66,FI,1713561466
488,porto novo,6.4965,2.6036,29.9,82,99,3.5,BJ,1713561466
489,lakhdenpokh'ya,61.5198,30.1992,-2.92,93,100,6.3,RU,1713561467
490,bardai,11.65,7.2333,30.75,12,43,3.07,NG,1713561467
491,nadym,65.5333,72.5167,-22.24,94,21,3.98,RU,1713561467
492,lodja,-3.4833,23.4333,22.76,97,100,0.71,CD,1713561468
493,boda,4.3189,17.4695,24.2,76,50,1.63,CF,1713561468
494,mount isa,-20.7333,139.5,17.87,36,80,6.17,AU,1713561468
495,novodvinsk,64.4165,40.8122,-4.01,75,100,6.74,RU,1713561469
496,tahe,52.3333,124.7333,-1.9,61,5,0.67,CN,1713561469
497,inarajan village,13.2736,144.7484,28.55,90,47,6.2,GU,1713561469
498,labrador city,52.9463,-66.9114,4.57,80,100,6.32,CA,1713561469
499,labuan bajo,-8.4964,119.8877,26.4,86,95,1.41,ID,1713561470
500,akrehamn,59.2667,5.1833,4.14,81,100,4.12,NO,1713561470
501,pasighat,28.0667,95.3333,21.7,71,99,1.89,IN,1713561470
502,estacion santa engracia,24.0159,-99.2015,34.06,27,27,3.71,MX,1713561471
503,tazacorte,28.629,-17.9293,20.54,86,20,5.14,ES,1713561471
504,qalat,32.1058,66.9083,12.32,64,58,1.57,AF,1713561471
505,kununurra,-15.7667,128.7333,23.99,50,40,3.09,AU,1713561471
506,floro,61.5996,5.0328,5.68,87,100,6.69,NO,1713561472
507,kolonia,50.9333,6.95,7.19,87,100,7.72,DE,1713561472
508,handan,36.6006,114.4678,12.69,46,65,3.04,CN,1713561472
509,timbuktu,16.7735,-3.0074,31.54,5,35,4.42,ML,1713561472
510,kolonia town,6.964,158.206,26.06,94,100,2.06,FM,1713561473
511,bulayevo,54.9056,70.4439,9.21,83,92,3.51,KZ,1713561473
512,mana,5.6592,-53.7767,27.43,77,54,4.75,GF,1713561473
513,serhetabat,35.2799,62.3438,14.72,44,11,1.36,TM,1713561474
514,copiapo,-27.3667,-70.3333,22.89,46,0,2.69,CL,1713561474
515,seram,17.1833,77.2833,29.26,50,100,2.01,IN,1713561474
516,mpongwe,-13.5091,28.155,18.4,85,22,2.56,ZM,1713561474
517,borogontsy,62.6683,131.1683,-5.04,94,98,2.5,RU,1713561475
518,baotou,40.6522,109.8222,4.83,48,2,2.79,CN,1713561475
519,kirensk,57.7853,108.1119,-2.8,95,13,0.89,RU,1713561475
520,mut,36.6439,33.4389,17.24,56,100,1.63,TR,1713561476
521,fale old settlement,-9.3852,-171.2468,29.43,76,100,6.67,TK,1713561476
522,campos dos goytacazes,-21.75,-41.3,24.03,73,40,5.14,BR,1713561203
523,jabor,5.921,169.6434,28.28,85,100,8.1,MH,1713561477
524,cromer,52.9312,1.2989,7.6,61,10,5.81,GB,1713561477
525,taroa,8.7058,171.2275,27.68,84,49,10.04,MH,1713561477
526,belomorsk,64.5232,34.7668,-6.05,93,100,9.28,RU,1713561478
527,casper,42.8666,-106.3131,4.84,41,75,3.6,US,1713561478
528,markovo,57.3206,107.0881,-2.15,93,92,1.4,RU,1713561478
529,motygino,58.1831,94.7592,0.99,99,100,1.34,RU,1713561479
530,omutinskiy,56.4745,67.6709,7.22,92,99,4.35,RU,1713561479
531,ushtobe,45.2514,77.9838,16.78,41,0,8.35,KZ,1713561480
532,miles city,46.4083,-105.8406,2.54,44,100,9.77,US,1713561189
533,salym,60.0625,71.4789,-3.83,87,100,2.3,RU,1713561480
534,yueyang,29.3333,113.0919,16.1,97,95,2.53,CN,1713561480
535,mufumbwe,-13.6833,24.8,18.6,69,85,1.37,ZM,1713561481
536,chibuto,-24.6867,33.5306,19.17,95,0,1.86,MZ,1713561481
537,kapa'a,22.0752,-159.319,27.99,81,100,7.72,US,1713561482
538,boguchany,58.3814,97.4531,2.7,99,100,1.34,RU,1713561482
539,nova vicosa,-17.8919,-39.3719,25.39,84,97,8.02,BR,1713561403
540,tsevie,6.4261,1.2133,29.49,75,100,3.51,TG,1713561482
541,karasu mahallesi,41.071,30.7854,11.44,81,100,1.68,TR,1713561483
542,sinabang,2.4803,96.3801,26.79,87,100,4.77,ID,1713561483
543,yorkton,51.2167,-102.4677,-1.07,73,100,7.57,CA,1713561483
544,katsuura,35.1333,140.3,17.55,78,100,2.44,JP,1713561483
545,mar del plata,-38.0023,-57.5575,22.01,67,0,2.68,AR,1713561343
546,basco,20.4487,121.9702,27.44,81,6,6.38,PH,1713561484
547,kruisfontein,-34.0033,24.7314,16.6,88,28,0.95,ZA,1713561484
548,kismayo,-0.3582,42.5454,28.34,80,100,6.81,SO,1713561485
549,giddings,30.1827,-96.9364,25.63,65,100,3.09,US,1713561485
550,taitung city,22.7583,121.1444,24.53,68,0,2.67,TW,1713561356
551,kiomboi,-4.2667,34.3667,16.89,90,100,3.02,TZ,1713561486
552,fort mcmurray,56.7268,-111.381,9.92,24,20,1.83,CA,1713561486
553,antonio enes,-16.2325,39.9086,25.08,90,100,3.77,MZ,1713561486
554,den burg,53.0542,4.7972,7.21,79,100,7.72,NL,1713561487
555,urengoy,65.9667,78.3667,-20.11,94,8,5.79,RU,1713561487
556,raduzhny,62.0961,77.475,-17.91,97,8,2.05,RU,1713561488
557,sosnovo-ozerskoye,52.5249,111.5418,-2.55,46,2,2.53,RU,1713561488
558,pemangkat,1.1667,108.9667,26.69,88,92,2.1,ID,1713561489
559,puerto leguizamo,-0.1934,-74.7819,24.71,96,100,0.98,CO,1713561489
560,aktau,43.65,51.2,15.32,46,0,3.94,KZ,1713561489
561,oswestry,52.862,-3.055,8.44,91,9,2.36,GB,1713561490
562,ulsteinvik,62.3432,5.8487,4.95,91,100,8.05,NO,1713561491
563,knyaze-volkonskoye,48.4642,135.4567,6.11,79,100,3.58,RU,1713561492
564,villa de soto,-30.8552,-64.9995,26.33,43,0,5.42,AR,1713561492
565,qamdo,31.1667,97.2333,2.59,76,78,1.72,CN,1713561492
566,aral,40.5156,81.2636,15.54,61,73,4.12,CN,1713561492
567,montagne blanche,-20.2828,57.6544,21.69,93,75,2.57,MU,1713561493
568,ashgabat,37.95,58.3833,23.08,26,0,1.97,TM,1713561493
569,nantucket,41.2835,-70.0995,11.16,75,0,6.17,US,1713561421
570,el fasher,13.6279,25.3494,30.34,11,97,4.82,SD,1713561493
571,vryheid,-27.7695,30.7917,14.5,77,0,1.64,ZA,1713561494
572,petnjica,42.9092,19.9638,0.75,85,58,0.71,ME,1713561494
573,banes,20.9625,-75.7186,27.4,59,3,6.77,CU,1713561494
574,sakiet sidi youssef,36.2229,8.3555,3.76,84,0,1.53,TN,1713561494
575,aurillac,44.9167,2.45,7.49,61,0,2.06,FR,1713561495
576,mount pleasant,32.7941,-79.8626,31.14,65,40,4.63,US,1713561495
577,broken hill,-31.95,141.4333,9.05,80,0,4.87,AU,1713561495
578,tarfaya,27.9358,-12.9218,19.09,83,10,6.0,MA,1713561496
579,eyl,7.9803,49.8164,29.04,74,76,3.78,SO,1713561496
580,krivosheino,57.3431,83.9261,-3.13,81,81,4.81,RU,1713561496
581,yukhnov,54.7444,35.2297,3.54,83,95,5.19,RU,1713561497
582,mata-utu,-13.2816,-176.1745,29.22,78,81,10.01,WF,1713561258
583,vila franca do campo,37.7167,-25.4333,18.27,99,72,3.31,PT,1713561497
584,pajapan,18.25,-94.7,26.09,50,13,5.72,MX,1713561497
